[{"mtspin":"Agnostic","schedule":[{"day":"Sunday","time":"4:00 PM"},{"day":"Sunday","time":"5:30 PM"},{"day":"Saturday","time":"5:00 PM"}],"location":[{"lat":40.7381228,"long":-74.0010304,"address":"208 W 13TH ST New York, NY"},{"lat":40.7381228,"long":-74.0010304,"address":"208 W 13TH ST New York, NY"},{"lat":40.7879892,"long":-73.9707609,"address":"595 COLUMBUS AVE New York NY "}],"num_obs":"2"},{"mtspin":"As Bill Sees It","schedule":[{"day":"Sunday","time":"4:00 PM"},{"day":"Saturday","time":"10:00 PM"},{"day":"Saturday","time":"10:00 AM"},{"day":"Sunday","time":"6:00 AM"},{"day":"Saturday","time":"6:00 AM"},{"day":"Sunday","time":"7:00 PM"}],"location":[{"lat":40.7721222,"long":-73.9517608,"address":"413 E 79TH STATE ROAD NY ST New York NY "},{"lat":40.7945161,"long":-73.9710419,"address":"207 W 96TH ST New York NY "},{"lat":40.7774259,"long":-73.9812051,"address":"152 W 71ST ST New York NY "},{"lat":40.7945161,"long":-73.9710419,"address":"207 W 96TH ST New York NY "},{"lat":40.7945161,"long":-73.9710419,"address":"207 W 96TH ST New York NY "},{"lat":40.7309636,"long":-73.9880637,"address":"206-208 E 11TH ST New York, NY"}],"num_obs":"4"},{"mtspin":"Beginners Workshop","schedule":[{"day":"Sunday","time":"9:15 PM"}],"location":[{"lat":40.7575385,"long":-73.9901368,"address":"303 W 42ND ST New York NY "}],"num_obs":"1"},{"mtspin":"Big Book Workshop","schedule":[{"day":"Saturday","time":"9:30 AM"}],"location":[{"lat":40.8232166,"long":-73.9484769,"address":"469 W 142ND ST New York NY "}],"num_obs":"1"},{"mtspin":"Children Welcome","schedule":[{"day":"Saturday","time":"10:00 AM"},{"day":"Sunday","time":"5:00 PM"},{"day":"Saturday","time":"5:00 PM"},{"day":"Sunday","time":"1:00 PM"}],"location":[{"lat":40.7721222,"long":-73.9517608,"address":"413 E 79TH STATE ROAD NY ST New York NY "},{"lat":40.7912379,"long":-73.9655109,"address":"3 W 95TH ST New York NY "},{"lat":40.7912379,"long":-73.9655109,"address":"3 W 95TH ST New York NY "},{"lat":40.7354854,"long":-74.0031569,"address":"50 PERRY ST New York NY "}],"num_obs":"3"},{"mtspin":"Eleventh Step","schedule":[{"day":"Sunday","time":"12:45 PM"},{"day":"Sunday","time":"11:00 AM"},{"day":"Saturday","time":"12:00 AM"}],"location":[{"lat":40.7431787,"long":-73.9952777,"address":"155 W 22ND ST New York, NY"},{"lat":40.7332068,"long":-73.9946888,"address":"7 E 10TH STRERT New York NY "},{"lat":40.7575385,"long":-73.9901368,"address":"303 W 42ND ST New York NY "}],"num_obs":"3"},{"mtspin":"Eleventh Step Meditation","schedule":[{"day":"Saturday","time":"7:30 PM"}],"location":[{"lat":40.7483929,"long":-73.9787906,"address":"122 E 37TH ST New York, NY"}],"num_obs":"1"},{"mtspin":"First Step Workshop","schedule":[{"day":"Sunday","time":"12:45 PM"},{"day":"Saturday","time":"3:15 PM"},{"day":"Sunday","time":"12:45 PM"},{"day":"Saturday","time":"10:30 AM"}],"location":[{"lat":40.7483929,"long":-73.9787906,"address":"122 E 37TH ST New York, NY"},{"lat":40.7790604,"long":-73.9588788,"address":"48 E 84TH STATE ROAD NY ST New York NY "},{"lat":40.7483929,"long":-73.9787906,"address":"122 E 37TH ST New York, NY"},{"lat":40.7708644,"long":-73.9806413,"address":"5 W 63RD ST New York NY "}],"num_obs":"3"},{"mtspin":"Fourth Step Workshop","schedule":[{"day":"Sunday","time":"3:00 PM"}],"location":[{"lat":40.729824,"long":-73.982816,"address":"411 E 12TH ST New York, NY"}],"num_obs":"1"},{"mtspin":"Gay, Lesbian and Bisexual","schedule":[{"day":"Sunday","time":"8:00 PM"},{"day":"Sunday","time":"6:45 PM"},{"day":"Sunday","time":"8:00 PM"},{"day":"Sunday","time":"6:45 PM"},{"day":"Saturday","time":"6:45 PM"},{"day":"Sunday","time":"5:30 PM"},{"day":"Sunday","time":"7:00 PM"},{"day":"Saturday","time":"5:30 PM"},{"day":"Sunday","time":"12:30 PM"},{"day":"Sunday","time":"8:30 PM"},{"day":"Sunday","time":"7:30 PM"},{"day":"Saturday","time":"6:00 PM"},{"day":"Saturday","time":"6:00 PM"},{"day":"Saturday","time":"8:00 PM"}],"location":[{"lat":40.7381228,"long":-74.0010304,"address":"208 W 13TH ST New York, NY"},{"lat":40.7593831,"long":-73.9872329,"address":"252 W 46TH ST New York NY "},{"lat":40.7593831,"long":-73.9872329,"address":"252 W 46TH ST New York NY "},{"lat":40.7381228,"long":-74.0010304,"address":"208 W 13TH ST New York, NY"},{"lat":40.7593831,"long":-73.9872329,"address":"252 W 46TH ST New York NY "},{"lat":40.7593831,"long":-73.9872329,"address":"252 W 46TH ST New York NY "},{"lat":40.7360657,"long":-74.0019452,"address":"224 WAVERLY PL New York NY "},{"lat":40.7593831,"long":-73.9872329,"address":"252 W 46TH ST New York NY "},{"lat":40.7335702,"long":-74.0037456,"address":"83 CHRISTOPHER ST New York NY "},{"lat":40.7360657,"long":-74.0019452,"address":"224 WAVERLY PL New York NY "},{"lat":40.8664723,"long":-73.9264521,"address":"20 CUMMING ST New York NY "},{"lat":40.7796494,"long":-73.982239,"address":"236 W 73RD ST New York NY "},{"lat":40.6701581,"long":-73.9819879,"address":"371 6TH AVE New York NY "},{"lat":40.7593831,"long":-73.9872329,"address":"252 W 46TH ST New York NY "}],"num_obs":"7"},{"mtspin":"Gay Men","schedule":[{"day":"Saturday","time":"12:30 PM"},{"day":"Sunday","time":"6:00 PM"}],"location":[{"lat":40.8321452,"long":-73.9448547,"address":"550 W 155TH ST New York NY "},{"lat":40.729824,"long":-73.982816,"address":"411 E 12TH ST New York, NY"}],"num_obs":"2"},{"mtspin":"Interpreted for the Deaf","schedule":[{"day":"Sunday","time":"12:00 PM"}],"location":[{"lat":40.7381228,"long":-74.0010304,"address":"208 W 13TH ST New York, NY"}],"num_obs":"1"},{"mtspin":"Lesbian","schedule":[{"day":"Saturday","time":"6:00 PM"}],"location":[{"lat":40.7381228,"long":-74.0010304,"address":"208 W 13TH ST New York, NY"}],"num_obs":"1"},{"mtspin":"Living Sober","schedule":[{"day":"Saturday","time":"1:30 PM"},{"day":"Saturday","time":"8:00 AM"}],"location":[{"lat":40.7593831,"long":-73.9872329,"address":"252 W 46TH ST New York NY "},{"lat":40.7575385,"long":-73.9901368,"address":"303 W 42ND ST New York NY "}],"num_obs":"2"},{"mtspin":"Meditation","schedule":[{"day":"Sunday","time":"12:30 PM"},{"day":"Sunday","time":"7:00 PM"},{"day":"Sunday","time":"5:00 PM"},{"day":"Sunday","time":"9:00 AM"},{"day":"Sunday","time":"11:00 AM"},{"day":"Saturday","time":"4:30 PM"},{"day":"Saturday","time":"7:30 PM"}],"location":[{"lat":40.7286385,"long":-74.0045871,"address":"220 W HOUSTON ST New York NY "},{"lat":40.7307719,"long":-73.9903164,"address":"61 FOURTH AVE New York, NY"},{"lat":40.6639307188879,"long":-73.9382749875207,"address":"865 MADISON STATE ROAD NY AVE New York NY "},{"lat":40.7384244,"long":-73.9840055,"address":"155 E 22ND ST New York, NY"},{"lat":40.7208165,"long":-74.0048523,"address":"283 W BROADWAY New York NY "},{"lat":40.7575385,"long":-73.9901368,"address":"303 W 42ND ST New York NY "},{"lat":40.7483929,"long":-73.9787906,"address":"122 E 37TH ST New York, NY"}],"num_obs":"7"},{"mtspin":"Men","schedule":[{"day":"Sunday","time":"5:00 PM"},{"day":"Saturday","time":"5:00 PM"},{"day":"Sunday","time":"10:30 AM"},{"day":"Sunday","time":"2:00 PM"}],"location":[{"lat":40.7345135,"long":-73.9854432,"address":"209 E 16TH ST New York, NY"},{"lat":40.8232166,"long":-73.9484769,"address":"469 W 142ND ST New York NY "},{"lat":40.7708644,"long":-73.9806413,"address":"5 W 63RD ST New York NY "},{"lat":40.7721222,"long":-73.9517608,"address":"413 E 79TH STATE ROAD NY ST New York NY "}],"num_obs":"4"},{"mtspin":"null","schedule":[{"day":"Sunday","time":"8:00 AM"},{"day":"Sunday","time":"10:00 AM"},{"day":"Sunday","time":"12:30 PM"},{"day":"Sunday","time":"6:15 PM"},{"day":"Sunday","time":"10:00 PM"},{"day":"Sunday","time":"10:00 AM"},{"day":"Sunday","time":"5:30 PM"},{"day":"Sunday","time":"7:00 PM"},{"day":"Sunday","time":"6:00 PM"},{"day":"Sunday","time":"3:00 PM"},{"day":"Sunday","time":"9:30 AM"},{"day":"Sunday","time":"11:00 AM"},{"day":"Sunday","time":"4:00 PM"},{"day":"Sunday","time":"2:00 PM"},{"day":"Sunday","time":"10:00 AM"},{"day":"Sunday","time":"12:00 PM"},{"day":"Sunday","time":"5:00 PM"},{"day":"Sunday","time":"2:30 PM"},{"day":"Sunday","time":"6:00 PM"},{"day":"Sunday","time":"7:00 PM"},{"day":"Sunday","time":"4:00 PM"},{"day":"Sunday","time":"7:00 PM"},{"day":"Sunday","time":"8:00 PM"},{"day":"Sunday","time":"1:00 PM"},{"day":"Sunday","time":"6:00 PM"},{"day":"Sunday","time":"6:30 PM"},{"day":"Sunday","time":"10:30 AM"},{"day":"Sunday","time":"3:00 PM"},{"day":"Sunday","time":"12:00 AM"},{"day":"Sunday","time":"2:00 AM"},{"day":"Sunday","time":"5:15 PM"},{"day":"Sunday","time":"6:30 PM"},{"day":"Sunday","time":"8:00 PM"},{"day":"Sunday","time":"10:00 PM"},{"day":"Sunday","time":"7:30 AM"},{"day":"Sunday","time":"9:00 AM"},{"day":"Sunday","time":"11:00 AM"},{"day":"Sunday","time":"3:00 PM"},{"day":"Sunday","time":"6:00 PM"},{"day":"Sunday","time":"8:30 PM"},{"day":"Sunday","time":"10:30 PM"},{"day":"Sunday","time":"7:30 AM"},{"day":"Sunday","time":"4:00 PM"},{"day":"Sunday","time":"8:00 AM"},{"day":"Sunday","time":"12:00 PM"},{"day":"Sunday","time":"6:15 PM"},{"day":"Sunday","time":"8:00 PM"},{"day":"Sunday","time":"2:45 PM"},{"day":"Sunday","time":"5:00 PM"},{"day":"Sunday","time":"6:00 PM"},{"day":"Sunday","time":"10:30 PM"},{"day":"Sunday","time":"12:00 AM"},{"day":"Sunday","time":"5:00 PM"},{"day":"Sunday","time":"10:30 AM"},{"day":"Sunday","time":"6:00 PM"},{"day":"Sunday","time":"12:00 PM"},{"day":"Sunday","time":"9:15 PM"},{"day":"Sunday","time":"7:30 PM"},{"day":"Sunday","time":"6:00 PM"},{"day":"Sunday","time":"8:00 AM"},{"day":"Sunday","time":"12:30 PM"},{"day":"Sunday","time":"7:15 AM"},{"day":"Sunday","time":"8:45 AM"},{"day":"Sunday","time":"10:15 AM"},{"day":"Sunday","time":"4:30 PM"},{"day":"Sunday","time":"7:30 PM"},{"day":"Sunday","time":"5:45 PM"},{"day":"Sunday","time":"10:00 PM"},{"day":"Sunday","time":"7:00 PM"},{"day":"Sunday","time":"3:30 PM"},{"day":"Sunday","time":"6:00 PM"},{"day":"Sunday","time":"6:00 PM"},{"day":"Sunday","time":"7:15 PM"},{"day":"Sunday","time":"8:00 AM"},{"day":"Sunday","time":"7:00 PM"},{"day":"Sunday","time":"9:00 AM"},{"day":"Sunday","time":"6:15 PM"},{"day":"Sunday","time":"7:30 PM"},{"day":"Sunday","time":"8:30 PM"},{"day":"Sunday","time":"7:30 AM"},{"day":"Sunday","time":"9:30 AM"},{"day":"Sunday","time":"11:00 AM"},{"day":"Sunday","time":"1:30 PM"},{"day":"Sunday","time":"4:30 PM"},{"day":"Sunday","time":"7:30 PM"},{"day":"Sunday","time":"4:00 PM"},{"day":"Sunday","time":"10:00 AM"},{"day":"Sunday","time":"6:15 PM"},{"day":"Sunday","time":"6:15 PM"},{"day":"Sunday","time":"5:30 PM"},{"day":"Sunday","time":"5:30 PM"},{"day":"Sunday","time":"7:30 AM"},{"day":"Sunday","time":"8:15 AM"},{"day":"Sunday","time":"9:30 AM"},{"day":"Sunday","time":"9:30 AM"},{"day":"Sunday","time":"11:00 AM"},{"day":"Sunday","time":"6:15 PM"},{"day":"Sunday","time":"8:00 PM"},{"day":"Sunday","time":"5:00 PM"},{"day":"Sunday","time":"7:45 AM"},{"day":"Sunday","time":"10:00 AM"},{"day":"Sunday","time":"10:15 AM"},{"day":"Sunday","time":"2:00 PM"},{"day":"Sunday","time":"1:30 PM"},{"day":"Sunday","time":"5:00 PM"},{"day":"Sunday","time":"6:00 PM"},{"day":"Sunday","time":"12:30 PM"}],"location":[{"lat":40.7721222,"long":-73.9517608,"address":"413 E 79TH STATE ROAD NY ST New York NY "},{"lat":40.7721222,"long":-73.9517608,"address":"413 E 79TH STATE ROAD NY ST New York NY "},{"lat":40.7721222,"long":-73.9517608,"address":"413 E 79TH STATE ROAD NY ST New York NY "},{"lat":40.7721222,"long":-73.9517608,"address":"413 E 79TH STATE ROAD NY ST New York NY "},{"lat":40.7721222,"long":-73.9517608,"address":"413 E 79TH STATE ROAD NY ST New York NY "},{"lat":40.766948,"long":-73.9577722,"address":"331 E 70TH STATE ROAD NY ST New York NY "},{"lat":40.8106798,"long":-73.944244,"address":"109 W 129TH ST New York NY "},{"lat":40.8106798,"long":-73.944244,"address":"109 W 129TH ST New York NY "},{"lat":40.8071759186691,"long":-73.9497519327616,"address":"2044 SEVENTH AVE New York NY "},{"lat":40.8119559,"long":-73.9625116,"address":"91 CLAREMONT AVE New York NY "},{"lat":40.8255289,"long":-73.9471616,"address":"1727 AMSTERDAM AVE New York NY "},{"lat":40.8255289,"long":-73.9471616,"address":"1727 AMSTERDAM AVE New York NY "},{"lat":40.8147959,"long":-73.9448542,"address":"204 W 134TH ST New York NY "},{"lat":40.8143457,"long":-73.9403066,"address":"506 LENOX AVE New York NY "},{"lat":40.8492702,"long":-73.9382266,"address":"715 W 179TH ST New York NY "},{"lat":40.8620966104922,"long":-73.9190004613749,"address":"431 W 204TH ST New York NY "},{"lat":40.8626147,"long":-73.9263819,"address":"35 THAYER ST New York NY "},{"lat":40.8378476619065,"long":-73.9384773058967,"address":"502 W 165TH ST New York NY "},{"lat":40.8560069,"long":-73.9342762,"address":"178 BENNETT AVE New York NY "},{"lat":40.7390247,"long":-73.9854161,"address":"127 E 22ND ST New York, NY"},{"lat":40.7371499,"long":-73.9853123,"address":"28 GRAMERCY PARK S New York, NY"},{"lat":40.6519369,"long":-73.9750389,"address":"50 E 7TH ST New York, NY"},{"lat":40.7251086,"long":-73.9899858,"address":"44 2ND AVE New York, NY"},{"lat":40.8021458,"long":-73.9442327,"address":"22 E 119TH ST New York, NY"},{"lat":40.7125016,"long":-74.0094639,"address":"22 BARCLAY ST New York NY "},{"lat":40.736193,"long":-74.0028632,"address":"232 W 11TH ST New York NY "},{"lat":40.7286385,"long":-74.0045871,"address":"220 W HOUSTON ST New York NY "},{"lat":40.7137143,"long":-73.983033,"address":"292 HENRY ST New York NY "},{"lat":40.7286385,"long":-74.0045871,"address":"220 W HOUSTON ST New York NY "},{"lat":40.7286385,"long":-74.0045871,"address":"220 W HOUSTON ST New York NY "},{"lat":40.7286385,"long":-74.0045871,"address":"220 W HOUSTON ST New York NY "},{"lat":40.7286385,"long":-74.0045871,"address":"220 W HOUSTON ST New York NY "},{"lat":40.7286385,"long":-74.0045871,"address":"220 W HOUSTON ST New York NY "},{"lat":40.7286385,"long":-74.0045871,"address":"220 W HOUSTON ST New York NY "},{"lat":40.7354854,"long":-74.0031569,"address":"50 PERRY ST New York NY "},{"lat":40.7354854,"long":-74.0031569,"address":"50 PERRY ST New York NY "},{"lat":40.7354854,"long":-74.0031569,"address":"50 PERRY ST New York NY "},{"lat":40.7354854,"long":-74.0031569,"address":"50 PERRY ST New York NY "},{"lat":40.7354854,"long":-74.0031569,"address":"50 PERRY ST New York NY "},{"lat":40.7354854,"long":-74.0031569,"address":"50 PERRY ST New York NY "},{"lat":40.7354854,"long":-74.0031569,"address":"50 PERRY ST New York NY "},{"lat":40.7236736,"long":-73.9924832,"address":"273 BOWERY ST New York NY "},{"lat":40.7593831,"long":-73.9872329,"address":"252 W 46TH ST New York NY "},{"lat":40.7575385,"long":-73.9901368,"address":"303 W 42ND ST New York NY "},{"lat":40.7575385,"long":-73.9901368,"address":"303 W 42ND ST New York NY "},{"lat":40.7575385,"long":-73.9901368,"address":"303 W 42ND ST New York NY "},{"lat":40.7575385,"long":-73.9901368,"address":"303 W 42ND ST New York NY "},{"lat":40.7593831,"long":-73.9872329,"address":"252 W 46TH ST New York NY "},{"lat":40.7682311,"long":-73.9868768,"address":"422 W 57TH ST New York NY "},{"lat":40.7682311,"long":-73.9868768,"address":"422 W 57TH ST New York NY "},{"lat":40.7593831,"long":-73.9872329,"address":"252 W 46TH ST New York NY "},{"lat":40.7575385,"long":-73.9901368,"address":"303 W 42ND ST New York NY "},{"lat":40.6589343,"long":-73.9348705,"address":"133 W 46TH ST New York NY "},{"lat":40.7575385,"long":-73.9901368,"address":"303 W 42ND ST New York NY "},{"lat":40.647412,"long":-73.9480599,"address":"139 W 31ST ST New York NY "},{"lat":40.7780247,"long":-73.9798344,"address":"131 W 72ND ST New York NY "},{"lat":40.7593831,"long":-73.9872329,"address":"252 W 46TH ST New York NY "},{"lat":40.7614721,"long":-73.9916406,"address":"423 W 46TH ST New York NY "},{"lat":40.7787712,"long":-73.9743066,"address":"160 CENTRAL PARK W New York NY "},{"lat":40.7708644,"long":-73.9806413,"address":"5 W 63RD ST New York NY "},{"lat":40.7708644,"long":-73.9806413,"address":"5 W 63RD ST New York NY "},{"lat":40.7945161,"long":-73.9710419,"address":"207 W 96TH ST New York NY "},{"lat":40.7945161,"long":-73.9710419,"address":"207 W 96TH ST New York NY "},{"lat":40.7945161,"long":-73.9710419,"address":"207 W 96TH ST New York NY "},{"lat":40.7946604892952,"long":-73.9699229082063,"address":"200 W 97TH ST New York NY "},{"lat":40.8021037,"long":-73.9658778,"address":"218 W 108TH ST New York NY "},{"lat":40.7945161,"long":-73.9710419,"address":"207 W 96TH ST New York NY "},{"lat":40.7945161,"long":-73.9710419,"address":"207 W 96TH ST New York NY "},{"lat":40.78931,"long":-73.9773114,"address":"552 W END AVE New York NY "},{"lat":40.780841,"long":-73.9510956,"address":"230 E 90TH STATE ROAD NY ST New York NY "},{"lat":40.6639307188879,"long":-73.9382749875207,"address":"865 MADISON STATE ROAD NY AVE New York NY "},{"lat":40.6639307188879,"long":-73.9382749875207,"address":"865 MADISON STATE ROAD NY AVE New York NY "},{"lat":40.6639307188879,"long":-73.9382749875207,"address":"865 MADISON STATE ROAD NY AVE New York NY "},{"lat":40.6639307188879,"long":-73.9382749875207,"address":"1296 LEXINGTON STATE ROAD NY AVE New York NY "},{"lat":40.6639307188879,"long":-73.9382749875207,"address":"1296 LEXINGTON STATE ROAD NY AVE New York NY "},{"lat":40.7694194,"long":-73.9555151,"address":"351 E 74TH STATE ROAD NY ST New York NY "},{"lat":40.7790604,"long":-73.9588788,"address":"48 E 84TH STATE ROAD NY ST New York NY "},{"lat":40.7790604,"long":-73.9588788,"address":"48 E 84TH STATE ROAD NY ST New York NY "},{"lat":40.7346341,"long":-73.9879773,"address":"123 E 15TH ST New York, NY"},{"lat":40.729824,"long":-73.982816,"address":"411 E 12TH ST New York, NY"},{"lat":40.729824,"long":-73.982816,"address":"411 E 12TH ST New York, NY"},{"lat":40.729824,"long":-73.982816,"address":"411 E 12TH ST New York, NY"},{"lat":40.729824,"long":-73.982816,"address":"411 E 12TH ST New York, NY"},{"lat":40.729824,"long":-73.982816,"address":"411 E 12TH ST New York, NY"},{"lat":40.729824,"long":-73.982816,"address":"411 E 12TH ST New York, NY"},{"lat":40.7381228,"long":-74.0010304,"address":"208 W 13TH ST New York, NY"},{"lat":40.7314102,"long":-73.9832013,"address":"344 E 14TH ST New York, NY"},{"lat":40.7483929,"long":-73.9787906,"address":"122 E 37TH ST New York, NY"},{"lat":40.7483929,"long":-73.9787906,"address":"122 E 37TH ST New York, NY"},{"lat":40.757654,"long":-73.963834,"address":"350 E 56TH ST New York, NY"},{"lat":40.757654,"long":-73.963834,"address":"350 E 56TH ST New York, NY"},{"lat":40.7483929,"long":-73.9787906,"address":"122 E 37TH ST New York, NY"},{"lat":40.7483929,"long":-73.9787906,"address":"122 E 37TH ST New York, NY"},{"lat":40.7483929,"long":-73.9787906,"address":"122 E 37TH ST New York, NY"},{"lat":40.7483929,"long":-73.9787906,"address":"122 E 37TH ST New York, NY"},{"lat":40.7483929,"long":-73.9787906,"address":"122 E 37TH ST New York, NY"},{"lat":40.7483929,"long":-73.9787906,"address":"122 E 37TH ST New York, NY"},{"lat":40.7483929,"long":-73.9787906,"address":"122 E 37TH ST New York, NY"},{"lat":40.7927121,"long":-73.94069,"address":"2126 2ND AVE New York, NY"},{"lat":40.7080393,"long":-74.0042361,"address":"49 FULTON ST New York NY "},{"lat":40.7276820090652,"long":-73.9857361176058,"address":"80 SAINT MARK New York, NY"},{"lat":40.7276820090652,"long":-73.9857361176058,"address":"80 SAINT MARK New York, NY"},{"lat":40.7276820090652,"long":-73.9857361176058,"address":"80 SAINT MARK New York, NY"},{"lat":40.729824,"long":-73.982816,"address":"411 E 12TH ST New York, NY"},{"lat":40.7251086,"long":-73.9899858,"address":"44 2ND AVE New York, NY"},{"lat":40.7357033,"long":-73.9992718,"address":"116 W 11TH ST New York, NY"},{"lat":40.7380755,"long":-73.9789197,"address":"319 EAST 24TH ST New York, NY"}],"num_obs":"53"},{"mtspin":"Promises","schedule":[{"day":"Saturday","time":"6:00 PM"},{"day":"Saturday","time":"7:00 PM"},{"day":"Saturday","time":"8:00 PM"},{"day":"Sunday","time":"8:00 PM"},{"day":"Saturday","time":"6:30 PM"},{"day":"Sunday","time":"6:15 PM"}],"location":[{"lat":40.74314,"long":-73.9781525,"address":"236 E 31ST ST New York, NY"},{"lat":40.7599913,"long":-73.9948326,"address":"484 W 43RD ST New York NY "},{"lat":40.729824,"long":-73.982816,"address":"411 E 12TH ST New York, NY"},{"lat":40.7721222,"long":-73.9517608,"address":"413 E 79TH STATE ROAD NY ST New York NY "},{"lat":40.7774259,"long":-73.9812051,"address":"152 W 71ST ST New York NY "},{"lat":40.7483929,"long":-73.9787906,"address":"122 E 37TH ST New York, NY"}],"num_obs":"6"},{"mtspin":"Special Purpose Groups","schedule":[{"day":"Saturday","time":"9:30 PM"}],"location":[{"lat":40.7381228,"long":-74.0010304,"address":"208 W 13TH ST New York, NY"}],"num_obs":"1"},{"mtspin":"Sponsorship Workshop","schedule":[{"day":"Saturday","time":"1:15 PM"}],"location":[{"lat":40.729824,"long":-73.982816,"address":"411 E 12TH ST New York, NY"}],"num_obs":"1"},{"mtspin":"Steps 1-2-3","schedule":[{"day":"Saturday","time":"4:00 PM"}],"location":[{"lat":40.7721222,"long":-73.9517608,"address":"413 E 79TH STATE ROAD NY ST New York NY "}],"num_obs":"1"},{"mtspin":"Topic","schedule":[{"day":"Saturday","time":"7:30 AM"}],"location":[{"lat":40.7236736,"long":-73.9924832,"address":"273 BOWERY ST New York NY "}],"num_obs":"1"},{"mtspin":"Twelve Steps","schedule":[{"day":"Sunday","time":"6:15 PM"}],"location":[{"lat":40.7744405,"long":-73.9838262,"address":"152 W 66TH ST New York NY "}],"num_obs":"1"},{"mtspin":"Women","schedule":[{"day":"Saturday","time":"2:00 PM"},{"day":"Sunday","time":"3:00 PM"},{"day":"Saturday","time":"1:00 PM"},{"day":"Saturday","time":"9:15 AM"},{"day":"Saturday","time":"9:30 AM"},{"day":"Saturday","time":"4:45 PM"},{"day":"Saturday","time":"12:00 PM"},{"day":"Sunday","time":"2:00 PM"},{"day":"Saturday","time":"9:00 AM"}],"location":[{"lat":40.7721222,"long":-73.9517608,"address":"413 E 79TH STATE ROAD NY ST New York NY "},{"lat":40.7483929,"long":-73.9787906,"address":"122 E 37TH ST New York, NY"},{"lat":40.7276820090652,"long":-73.9857361176058,"address":"80 SAINT MARK New York, NY"},{"lat":40.7694194,"long":-73.9555151,"address":"351 E 74TH STATE ROAD NY ST New York NY "},{"lat":40.7694194,"long":-73.9555151,"address":"351 E 74TH STATE ROAD NY ST New York NY "},{"lat":40.7286385,"long":-74.0045871,"address":"220 W HOUSTON ST New York NY "},{"lat":40.7593831,"long":-73.9872329,"address":"252 W 46TH ST New York NY "},{"lat":40.7575385,"long":-73.9901368,"address":"303 W 42ND ST New York NY "},{"lat":40.7992334,"long":-73.9710638,"address":"306 W 102ND ST New York NY "}],"num_obs":"8"},{"mtspin":"Young People","schedule":[{"day":"Saturday","time":"7:00 PM"},{"day":"Saturday","time":"7:00 PM"}],"location":[{"lat":40.7844228,"long":-73.9716168,"address":"26 W 84TH ST New York NY "},{"lat":40.7208165,"long":-74.0048523,"address":"283 W BROADWAY New York NY "}],"num_obs":"2"}]
